[{"name": "Cruz de Cristo (IELU)", "religion": "christian", "denomination": "lutheran", "lat": -34.5661914, "lon": -58.4557688}, {"name": "El Redentor (IELU)", "religion": "christian", "denomination": "lutheran", "lat": -34.5995688, "lon": -58.4963615}, {"name": "Iglesia Centro (IERP)", "religion": "christian", "denomination": "lutheran", "lat": -34.6063238, "lon": -58.3780229}, {"name": "Parroquia Belgrano (IERP)", "religion": "christian", "denomination": "evangelical", "lat": -34.5663725, "lon": -58.4593678}, {"name": "Iglesia Evang\u00e9lica Metodista de Almagro", "religion": "christian", "denomination": "methodist", "lat": -34.6123875, "lon": -58.4228517}, {"name": "Emanuel", "religion": "christian", "denomination": "methodist", "lat": -34.6075, "lon": -58.4764432}, {"name": "Congregaci\u00f3n Liniers", "religion": "christian", "denomination": "methodist", "lat": -34.6427111, "lon": -58.5148322}, {"name": "Parroquia Esperanza", "religion": "christian", "denomination": "methodist", "lat": -34.6036173, "lon": -58.3771035}, {"name": "Tercera Iglesia", "religion": "christian", "denomination": "methodist", "lat": -34.6273046, "lon": -58.3885116}, {"name": "San Pablo (IELA)", "religion": "christian", "denomination": "lutheran", "lat": -34.5713593, "lon": -58.4696813}, {"name": "San Patricio", "religion": "christian", "denomination": "catholic", "lat": -34.5719406, "lon": -58.4705798}, {"name": "Santa Elena", "religion": "christian", "denomination": "catholic", "lat": -34.5777399, "lon": -58.4119188}, {"name": "San Mart\u00edn de Tours", "religion": "christian", "denomination": "catholic", "lat": -34.5782871, "lon": -58.4040243}, {"name": "Templo Yeshurun", "religion": "jewish", "denomination": "", "lat": -34.5778097, "lon": -58.4143217}, {"name": "Parroquia Carpintero de Nazareth", "religion": "christian", "denomination": "methodist", "lat": -34.6359178, "lon": -58.397779}, {"name": "Parroquia Sagrada Eucarist\u00eda", "religion": "christian", "denomination": "catholic", "lat": -34.5806257, "lon": -58.423}, {"name": "San Gregorio Iluminador", "religion": "christian", "denomination": "armenian_apostolic", "lat": -34.5918756, "lon": -58.4306494}, {"name": "Iglesia Adventista de Palermo", "religion": "christian", "denomination": "seventh_day_adventist", "lat": -34.581265, "lon": -58.4232562}, {"name": "San Francisco Javier", "religion": "christian", "denomination": "catholic", "lat": -34.5871211, "lon": -58.4272415}, {"name": "La Reforma", "religion": "christian", "denomination": "lutheran", "lat": -34.5171837, "lon": -58.4838167}, {"name": "Bas\u00edlica Santuario de Santa Rosa de Lima", "religion": "christian", "denomination": "catholic", "lat": -34.6144041, "lon": -58.3977428}, {"name": "Templo de los Milagros", "religion": "christian", "denomination": "pentecostal", "lat": -34.6150324, "lon": -58.40914}, {"name": "Iglesia Salesiana San Antonio", "religion": "christian", "denomination": "catholic", "lat": -34.6204618, "lon": -58.4232024}, {"name": "Nuestra Se\u00f1ora de Luj\u00e1n", "religion": "christian", "denomination": "catholic", "lat": -34.6356887, "lon": -58.3991276}, {"name": "Sinagoga de la Congregaci\u00f3n Israelita (CIRA)", "religion": "jewish", "denomination": "", "lat": -34.599592, "lon": -58.3838939}, {"name": "Iglesia Ortodoxa Rusa de la Anunciaci\u00f3n", "religion": "christian", "denomination": "russian_orthodox", "lat": -34.5914793, "lon": -58.4147438}, {"name": "Santuario Jes\u00fas Misericordioso", "religion": "christian", "denomination": "catholic", "lat": -34.5690423, "lon": -58.4825469}, {"name": "parroquia Cristo Rey", "religion": "christian", "denomination": "catholic", "lat": -34.575964, "lon": -58.5025884}, {"name": "Parroquia Inmaculada Concepci\u00f3n", "religion": "christian", "denomination": "catholic", "lat": -34.594009, "lon": -58.5096626}, {"name": "Iglesia N\u00f3rdica", "religion": "christian", "denomination": "lutheran", "lat": -34.6243229, "lon": -58.3664208}, {"name": "", "religion": "christian", "denomination": "", "lat": -34.602463, "lon": -58.50546}, {"name": "Parroquia Santa Adela", "religion": "christian", "denomination": "catholic", "lat": -34.574245, "lon": -58.4316128}, {"name": "Parroquia San Juan el precursor", "religion": "christian", "denomination": "", "lat": -34.5642693, "lon": -58.5026938}, {"name": "Santa Ana", "religion": "christian", "denomination": "catholic", "lat": -34.6010151, "lon": -58.4948897}, {"name": "Iglesia Chung-Ang", "religion": "christian", "denomination": "presbyterian", "lat": -34.6378541, "lon": -58.438563}, {"name": "Iglesia Chung-Ang", "religion": "christian", "denomination": "presbyterian", "lat": -34.6395356, "lon": -58.43815}, {"name": "Santa Rosa de Lima", "religion": "christian", "denomination": "catholic", "lat": -34.6917882, "lon": -58.5272665}, {"name": "Santuario Schoenstatt", "religion": "christian", "denomination": "catholic", "lat": -34.5965081, "lon": -58.3948954}, {"name": "Congregaci\u00f3n La Boca", "religion": "christian", "denomination": "methodist", "lat": -34.6378213, "lon": -58.3621891}, {"name": "", "religion": "", "denomination": "", "lat": -34.6850427, "lon": -58.4629251}, {"name": "Inmaculada Virgen de Fatima", "religion": "christian", "denomination": "", "lat": -34.6159213, "lon": -58.5301277}, {"name": "Iglesia Visi\u00f3n de Futuro", "religion": "christian", "denomination": "", "lat": -34.6231674, "lon": -58.4160626}, {"name": "Capilla Nuestra Se\u00f1ora de Luj\u00e1n", "religion": "christian", "denomination": "roman_catholic", "lat": -34.5557792, "lon": -58.415369}, {"name": "Iglesia Cat\u00f3lica Armenia", "religion": "christian", "denomination": "catholic", "lat": -34.5896378, "lon": -58.4148764}, {"name": "San Pedro Apostol", "religion": "christian", "denomination": "catholic", "lat": -34.6195479, "lon": -58.5091731}, {"name": "Iglesia Evang\u00e9lica San Pablo", "religion": "christian", "denomination": "evangelical", "lat": -34.5817187, "lon": -58.4259414}, {"name": "Jesucristo es el Se\u00f1or - Centro de Ayuda Espiritual", "religion": "christian", "denomination": "pentecostal", "lat": -34.5793154, "lon": -58.4237165}, {"name": "Comunidad Israelita Sefarad\u00ed de Bs As", "religion": "jewish", "denomination": "", "lat": -34.5976773, "lon": -58.4433613}, {"name": "Parroquia san Lu\u00eds Gonzaga", "religion": "christian", "denomination": "", "lat": -34.611382, "lon": -58.5037812}, {"name": "Sant\u00edsima Cruz", "religion": "christian", "denomination": "catholic", "lat": -34.6081491, "lon": -58.4769689}, {"name": "Parroquia Santa Elisa", "religion": "christian", "denomination": "", "lat": -34.6339696, "lon": -58.3823438}, {"name": "Parroquia Jes\u00fas de la Buena Esperanza", "religion": "christian", "denomination": "catholic", "lat": -34.5866934, "lon": -58.5108579}, {"name": "Iglesia San Cayetano de Belgrano", "religion": "christian", "denomination": "catholic", "lat": -34.5674671, "lon": -58.4574022}, {"name": "Nuestra Se\u00f1ora del Buen Consejo", "religion": "christian", "denomination": "Parroquia", "lat": -34.6336846, "lon": -58.4929417}, {"name": "Santisimo Redentor", "religion": "christian", "denomination": "", "lat": -34.5927308, "lon": -58.4006091}, {"name": "Iglesia San Bernardo Abad", "religion": "christian", "denomination": "", "lat": -34.600265, "lon": -58.4452169}, {"name": "Parroquia Pur\u00edsimo Coraz\u00f3n de Mar\u00eda", "religion": "christian", "denomination": "", "lat": -34.5810909, "lon": -58.5059033}, {"name": "Parroquia de San Ferm\u00edn y San Expedito", "religion": "christian", "denomination": "", "lat": -34.5862835, "lon": -58.4667496}, {"name": "Parroquia Nuestra Se\u00f1ora de las Mercedes", "religion": "christian", "denomination": "catholic", "lat": -34.5567585, "lon": -58.4457293}, {"name": "Sin Heng", "religion": "christian", "denomination": "presbyterian", "lat": -34.5569187, "lon": -58.4503839}, {"name": "Iglesia Patrocinio de San Jos\u00e9", "religion": "christian", "denomination": "catholic", "lat": -34.5963866, "lon": -58.3962383}, {"name": "Capilla sagrada familia de Nazareth", "religion": "christian", "denomination": "catholic", "lat": -34.5727518, "lon": -58.4523311}, {"name": "Iglesia Adventista de Barracas", "religion": "christian", "denomination": "seventh_day_adventist", "lat": -34.6501031, "lon": -58.377963}, {"name": "Iglesia Adventista de Florida", "religion": "christian", "denomination": "seventh_day_adventist", "lat": -34.5340014, "lon": -58.5059448}, {"name": "Iglesia Luteriana", "religion": "christian", "denomination": "", "lat": -34.5347895, "lon": -58.5085917}, {"name": "Comunidad Dor Jadash", "religion": "jewish", "denomination": "", "lat": -34.600962, "lon": -58.443276}, {"name": "Centro Sri Sathya Sai Baba", "religion": "hindu", "denomination": "", "lat": -34.6198048, "lon": -58.3783398}, {"name": "Iglesia", "religion": "christian", "denomination": "", "lat": -34.6236699, "lon": -58.4300484}, {"name": "Iglesia Evang\u00e9lica Reformada de Buenos Aires", "religion": "christian", "denomination": "evangelical", "lat": -34.5627348, "lon": -58.4623878}, {"name": "Nuestra Se\u00f1ora de Las Victorias", "religion": "christian", "denomination": "catholic", "lat": -34.598281, "lon": -58.3843}, {"name": "Fo Guang Shan", "religion": "buddhist", "denomination": "", "lat": -34.5679819, "lon": -58.4582528}, {"name": "", "religion": "christian", "denomination": "", "lat": -34.6034195, "lon": -58.3925333}, {"name": "Universal", "religion": "christian", "denomination": "evangelical", "lat": -34.5358952, "lon": -58.4771449}, {"name": "Parroquia Se\u00f1or del Milagro", "religion": "christian", "denomination": "catholic", "lat": -34.5704195, "lon": -58.4518704}, {"name": "Iglesia", "religion": "christian", "denomination": "catholic", "lat": -34.6445546, "lon": -58.4863768}, {"name": "Iglesia Cristiana Evanangelica Villa Devoto en Gabriela Mistral", "religion": "christian", "denomination": "evangelical", "lat": -34.5915668, "lon": -58.5088181}, {"name": "Iglesia de Munro", "religion": "christian", "denomination": "protestant", "lat": -34.5320679, "lon": -58.526404}, {"name": "Parroquia Ortodoxa San Mart\u00edn de Tours", "religion": "christian", "denomination": "orthodox", "lat": -34.5867087, "lon": -58.4229319}, {"name": "Iglesia Santa Mar\u00eda de Betania", "religion": "christian", "denomination": "", "lat": -34.6013567, "lon": -58.4208902}, {"name": "Iglesia Jes\u00fas Sacramentado", "religion": "christian", "denomination": "catholic", "lat": -34.6023016, "lon": -58.4275957}, {"name": "Sagrada Familia", "religion": "christian", "denomination": "catholic", "lat": -34.6165628, "lon": -58.4702496}, {"name": "Iarjo Jabad", "religion": "jewish", "denomination": "lubavitch", "lat": -34.5987537, "lon": -58.4209545}, {"name": "Presencia de Dios", "religion": "christian", "denomination": "evangelical", "lat": -34.627043, "lon": -58.4322714}, {"name": "Templo Tzong Kuan", "religion": "buddhist", "denomination": "", "lat": -34.5567067, "lon": -58.4494173}, {"name": "", "religion": "christian", "denomination": "catholic", "lat": -34.6148917, "lon": -58.4839246}, {"name": "Parroquia San Antonio de Padua", "religion": "christian", "denomination": "catholic", "lat": -34.6366386, "lon": -58.4019066}, {"name": "Parroquia San Jos\u00e9", "religion": "christian", "denomination": "", "lat": -34.6955218, "lon": -58.3313074}, {"name": "Parroquia de la Santa Faz", "religion": "christian", "denomination": "catholic", "lat": -34.6900794, "lon": -58.4063932}, {"name": "Iglesia Cristiana Evang\u00e9lica", "religion": "christian", "denomination": "evangelical", "lat": -34.6943659, "lon": -58.4033539}, {"name": "Iglesia Cristiana Evang\u00e9lica", "religion": "christian", "denomination": "evangelical", "lat": -34.6693121, "lon": -58.3478931}, {"name": "Iglesia Cristiana Evang\u00e9lica", "religion": "christian", "denomination": "evangelical", "lat": -34.6637709, "lon": -58.3766075}, {"name": "Iglesia Cristiana Evang\u00e9lica", "religion": "christian", "denomination": "evangelical", "lat": -34.6871162, "lon": -58.414787}, {"name": "Iglesia Cristiana Evang\u00e9lica", "religion": "christian", "denomination": "evangelical", "lat": -34.675439, "lon": -58.3985485}, {"name": "Parroquia Santo Cristo", "religion": "christian", "denomination": "", "lat": -34.6898689, "lon": -58.4775833}, {"name": "Iglesia Cristiana Evang\u00e9lica", "religion": "christian", "denomination": "evangelical", "lat": -34.6783953, "lon": -58.3428505}, {"name": "Iglesia Cristiana Evang\u00e9lica", "religion": "christian", "denomination": "evangelical", "lat": -34.6869778, "lon": -58.3539311}, {"name": "", "religion": "christian", "denomination": "catholic", "lat": -34.6045432, "lon": -58.4921001}, {"name": "Capilla Colegio Inmaculada Concepci\u00f3n", "religion": "christian", "denomination": "catholic", "lat": -34.6391016, "lon": -58.5384238}, {"name": "Nuestra Se\u00f1ora del L\u00edbano", "religion": "christian", "denomination": "catholic", "lat": -34.5915923, "lon": -58.5251771}, {"name": "Nuestra Se\u00f1ora de Pompeya", "religion": "christian", "denomination": "", "lat": -34.652118, "lon": -58.4168788}, {"name": "Misiunea \u201eSf\u00e2ntul Apostol Andrei\u201d Buenos Aires", "religion": "christian", "denomination": "romanian_orthodox", "lat": -34.6313937, "lon": -58.3871673}, {"name": "Templo Bautista Emanuel", "religion": "", "denomination": "", "lat": -34.6512264, "lon": -58.4686043}, {"name": "Parroquia Ni\u00f1o Jes\u00fas", "religion": "christian", "denomination": "", "lat": -34.6759115, "lon": -58.4772807}, {"name": "Convento Las Paulinas", "religion": "christian", "denomination": "", "lat": -34.5892909, "lon": -58.4984729}, {"name": "Capilla", "religion": "", "denomination": "", "lat": -34.6859903, "lon": -58.4904015}, {"name": "Parroquia San Ambrosio", "religion": "christian", "denomination": "catholic", "lat": -34.5737172, "lon": -58.4598412}, {"name": "Parroquia Nuestra Se\u00f1ora del Rosario", "religion": "christian", "denomination": "", "lat": -34.5812141, "lon": -58.4347096}, {"name": "Capilla San Juan Bautista", "religion": "christian", "denomination": "catholic", "lat": -34.6745953, "lon": -58.464023}, {"name": "Iglesia Evang\u00e9lica EBEN-EZER", "religion": "christian", "denomination": "evangelical", "lat": -34.6739696, "lon": -58.463804}, {"name": "Iglesia Cristiana Evang\u00e9lica", "religion": "christian", "denomination": "evangelical", "lat": -34.6736918, "lon": -58.4665663}, {"name": "Iglesia Evang\u00e9lica", "religion": "christian", "denomination": "pentecostal", "lat": -34.674253, "lon": -58.4656139}, {"name": "Catedral de la Fe", "religion": "christian", "denomination": "evangelical", "lat": -34.6296755, "lon": -58.4399663}, {"name": "Iglesia Evang\u00e9lica Bautista", "religion": "christian", "denomination": "baptist", "lat": -34.5930111, "lon": -58.4445977}, {"name": "Parroquia Nuestra Se\u00f1ora de F\u00e1tima", "religion": "christian", "denomination": "catholic", "lat": -34.4835695, "lon": -58.4900348}, {"name": "Parroquia Nuestra Se\u00f1ora de Lourdes", "religion": "christian", "denomination": "catholic", "lat": -34.686587, "lon": -58.5483091}, {"name": "COFRAGUA", "religion": "christian", "denomination": "", "lat": -34.5894851, "lon": -58.4190291}, {"name": "Mezquita Al Ahmad", "religion": "muslim", "denomination": "", "lat": -34.6279696, "lon": -58.4001494}, {"name": "Capilla La Santa Faz", "religion": "christian", "denomination": "catholic", "lat": -34.6199604, "lon": -58.3861842}, {"name": "Iglesia Santa Rita de Casia", "religion": "christian", "denomination": "", "lat": -34.6159577, "lon": -58.4874178}, {"name": "La Iglesia de Jesucristo de los Santos de los \u00daltimos D\u00edas", "religion": "christian", "denomination": "mormon", "lat": -34.59459, "lon": -58.4392533}, {"name": "Parroquia Nuestra Se\u00f1ora de F\u00e1tima", "religion": "christian", "denomination": "catholic", "lat": -34.5555712, "lon": -58.4574632}, {"name": "Iglesia Cristo Vive", "religion": "christian", "denomination": "", "lat": -34.640613, "lon": -58.4936339}, {"name": "Ministerio Evangelistico Manantial de Agua Viva", "religion": "christian", "denomination": "", "lat": -34.5491215, "lon": -58.5216144}, {"name": "", "religion": "christian", "denomination": "", "lat": -34.6506743, "lon": -58.4437172}, {"name": "Centro Evangelisto Maranatha", "religion": "christian", "denomination": "", "lat": -34.64756, "lon": -58.428371}, {"name": "Iglesia Evangelica Bautista Sinai", "religion": "christian", "denomination": "", "lat": -34.6457161, "lon": -58.4163529}, {"name": "Dios es Amor", "religion": "christian", "denomination": "", "lat": -34.6480208, "lon": -58.4157823}, {"name": "Legi\u00f3n de la Buena Voluntad", "religion": "christian", "denomination": "", "lat": -34.6365557, "lon": -58.4160082}, {"name": "Parroquia Natividad de Mar\u00eda", "religion": "christian", "denomination": "", "lat": -34.6487233, "lon": -58.3784842}, {"name": "Iglesia Evangelica Asamblea de Dios", "religion": "christian", "denomination": "", "lat": -34.6563265, "lon": -58.399179}, {"name": "Iglesia Pentecostal del Nombre de Jesucristo", "religion": "christian", "denomination": "", "lat": -34.6557212, "lon": -58.3995788}, {"name": "Virgen de los Milagros de Caacupe", "religion": "christian", "denomination": "", "lat": -34.6561268, "lon": -58.3965474}, {"name": "I.P.U", "religion": "christian", "denomination": "", "lat": -34.651203, "lon": -58.3986199}, {"name": "Parroquia Nuestra Se\u00f1ora de la Divina Providencia", "religion": "christian", "denomination": "", "lat": -34.6504898, "lon": -58.4103715}, {"name": "Iglesia Cristiana Evang\u00e9lica", "religion": "christian", "denomination": "evangelical", "lat": -34.5497976, "lon": -58.4767868}, {"name": "Jes\u00fas es Vida", "religion": "christian", "denomination": "", "lat": -34.5497041, "lon": -58.5083335}, {"name": "Rey Gloria", "religion": "", "denomination": "", "lat": -34.5673358, "lon": -58.5160687}, {"name": "Los Pentecostales de Liniers", "religion": "christian", "denomination": "pentecostal", "lat": -34.6401657, "lon": -58.5148744}, {"name": "Centro Mesi\u00e1nico Comunitario", "religion": "jewish", "denomination": "", "lat": -34.6055742, "lon": -58.4175027}, {"name": "El Camino Antiguio", "religion": "christian", "denomination": "assemblies_of_god", "lat": -34.5764827, "lon": -58.4313481}, {"name": "Salon del Reino de los Testigos de Jehov\u00e1", "religion": "christian", "denomination": "", "lat": -34.5886222, "lon": -58.5101065}, {"name": "el faro", "religion": "christian", "denomination": "", "lat": -34.4897588, "lon": -58.5007337}, {"name": "Iglesia Evangelica Cristo Salva y Sana", "religion": "christian", "denomination": "", "lat": -34.5585162, "lon": -58.473376}, {"name": "Centro Cristiano Ciudadela", "religion": "christian", "denomination": "", "lat": -34.6401089, "lon": -58.5376766}, {"name": "Santuario Mundial de los Milagros", "religion": "christian", "denomination": "", "lat": -34.6829324, "lon": -58.5155837}, {"name": "Cristo es el Cambio", "religion": "christian", "denomination": "", "lat": -34.6359947, "lon": -58.4875735}, {"name": "Iglesia Adventista del S\u00e9ptimo D\u00eda", "religion": "christian", "denomination": "seventh_day_adventist", "lat": -34.6393728, "lon": -58.5213469}, {"name": "Bas\u00edlica Nuestra Se\u00f1ora del Rosario", "religion": "christian", "denomination": "catholic", "lat": -34.6128595, "lon": -58.3716846}, {"name": "Iglesia Italiana Madre Misericordia", "religion": "christian", "denomination": "roman_catholic", "lat": -34.6124388, "lon": -58.3900719}, {"name": "Iglesia Evang\u00e9lica Misionera", "religion": "christian", "denomination": "evangelical", "lat": -34.6406295, "lon": -58.514872}, {"name": "Iglesia danesa", "religion": "christian", "denomination": "", "lat": -34.6192208, "lon": -58.3695116}, {"name": "Iglesia Bautista Pueblo Nuevo Indoamericano", "religion": "christian", "denomination": "", "lat": -34.6660367, "lon": -58.4685342}, {"name": "Parroquia Nuestra Se\u00f1ora Madre de los Emigrantes", "religion": "christian", "denomination": "", "lat": -34.6275212, "lon": -58.3638286}, {"name": "Tiempos de Dios", "religion": "christian", "denomination": "", "lat": -34.6648201, "lon": -58.3499736}, {"name": "Iglesia Apostolica y Profetica Jesucristo Vida Abundante", "religion": "christian", "denomination": "", "lat": -34.6621273, "lon": -58.3410789}, {"name": "Dios es Fiel", "religion": "christian", "denomination": "", "lat": -34.6552445, "lon": -58.3451848}, {"name": "Parroquia San Andres Avelino - Gruta de N.S. de Lourdes", "religion": "christian", "denomination": "roman_catholic", "lat": -34.5065896, "lon": -58.5451682}, {"name": "Iglesia del Coraz\u00f3n de Jes\u00fas", "religion": "christian", "denomination": "catholic", "lat": -34.613659, "lon": -58.365835}, {"name": "Parroquia San Juan Bosco", "religion": "christian", "denomination": "", "lat": -34.5782279, "lon": -58.4398649}, {"name": "Iglesia de Santos Martires Coreanos", "religion": "", "denomination": "", "lat": -34.6378657, "lon": -58.4469705}, {"name": "Asociaci\u00f3n Escuela Cient\u00edfica Basilio", "religion": "christian", "denomination": "", "lat": -34.6397648, "lon": -58.5234946}, {"name": "Iglesia de Dios Ministerial de Jesucristo Internacional", "religion": "christian", "denomination": "", "lat": -34.6010594, "lon": -58.4441323}, {"name": "Nuestra Se\u00f1ora de los Dolores", "religion": "christian", "denomination": "catholic", "lat": -34.6090273, "lon": -58.4353646}, {"name": "Capilla \u201cVirgen de Lujan\u201d", "religion": "", "denomination": "", "lat": -34.6588205, "lon": -58.4530517}, {"name": "Regina Martyrum Congreso", "religion": "christian", "denomination": "", "lat": -34.6104173, "lon": -58.3951464}, {"name": "Jes\u00fas es Vida", "religion": "christian", "denomination": "", "lat": -34.6423034, "lon": -58.5288007}, {"name": "Instituci\u00f3n religiosa Perfecta Libertad", "religion": "", "denomination": "", "lat": -34.6421216, "lon": -58.5260967}, {"name": "Vivo en jesus", "religion": "christian", "denomination": "evangelical", "lat": -34.6086102, "lon": -58.4450081}, {"name": "Parroquia Nuestra Se\u00f1ora de Luj\u00e1n del Buen Viaje", "religion": "christian", "denomination": "catholic", "lat": -34.5410307, "lon": -58.4675883}, {"name": "Virgen Honaine y La Cruj\u00eda", "religion": "christian", "denomination": "", "lat": -34.5683009, "lon": -58.5447753}, {"name": "Iglesia Anglicana San Salvador", "religion": "christian", "denomination": "", "lat": -34.5673753, "lon": -58.4594274}, {"name": "Iglesia Cristiana China de Ultramar", "religion": "christian", "denomination": "", "lat": -34.5574071, "lon": -58.4453688}, {"name": "Mishk\u00e1n", "religion": "jewish", "denomination": "reform", "lat": -34.5582386, "lon": -58.4452397}, {"name": "Sal\u00f3n del Reino de los Testigos de Jehovah", "religion": "christian", "denomination": "", "lat": -34.5924418, "lon": -58.431939}, {"name": "Capilla del Hospital Italiano", "religion": "christian", "denomination": "", "lat": -34.6066452, "lon": -58.4263353}, {"name": "Parroquia Santa Rosa de Lima", "religion": "christian", "denomination": "catholic", "lat": -34.6147933, "lon": -58.3973578}, {"name": "Iglesia Presbisteriana San Andr\u00e9s", "religion": "christian", "denomination": "presbyterian", "lat": -34.5643102, "lon": -58.4634076}, {"name": "Santuario de Sch\u00f6enstatt", "religion": "christian", "denomination": "catholic", "lat": -34.5702931, "lon": -58.4679889}, {"name": "Parroqu\u00eda Virgen de los Pobres", "religion": "christian", "denomination": "", "lat": -34.535491, "lon": -58.5275654}, {"name": "Infobip Latam", "religion": "", "denomination": "", "lat": -34.5811623, "lon": -58.4425147}, {"name": "Infobip Argentina", "religion": "", "denomination": "", "lat": -34.5811777, "lon": -58.4425415}, {"name": "Ermita San Expedito", "religion": "christian", "denomination": "", "lat": -34.6974508, "lon": -58.4151373}, {"name": "Asociaci\u00f3n Escuela Cient\u00edfica Basilio", "religion": "christian", "denomination": "", "lat": -34.5953389, "lon": -58.4950966}, {"name": "Iglesia Disc\u00edpulos de Cristo", "religion": "christian", "denomination": "disciples_of_christ", "lat": -34.5436031, "lon": -58.4776382}, {"name": "Escuela Cient\u00edfica Basilio", "religion": "christian", "denomination": "disciples_of_christ", "lat": -34.6388899, "lon": -58.4675581}, {"name": "Escuela Cient\u00edfica Basilio", "religion": "christian", "denomination": "disciples_of_christ", "lat": -34.6230016, "lon": -58.4092506}, {"name": "Beit Menajem", "religion": "jewish", "denomination": "", "lat": -34.6027718, "lon": -58.4064002}, {"name": "Parroquia Santa Teresita del Ni\u00f1o Jes\u00fas", "religion": "christian", "denomination": "roman_catholic", "lat": -34.5978268, "lon": -58.5336418}, {"name": "Parroquia Virgen Inmaculada", "religion": "christian", "denomination": "", "lat": -34.6557138, "lon": -58.456935}, {"name": "Iglesia Evangelica Esperanza", "religion": "christian", "denomination": "", "lat": -34.6546692, "lon": -58.4574364}, {"name": "Rey de Reyes", "religion": "christian", "denomination": "", "lat": -34.5604015, "lon": -58.4597337}, {"name": "Al-masyidi At-Tauhid", "religion": "muslim", "denomination": "shia", "lat": -34.6257795, "lon": -58.48152}, {"name": "Templo Evang\u00e9lico Bautista", "religion": "christian", "denomination": "evangelical", "lat": -34.6360033, "lon": -58.5426083}, {"name": "ENA BA", "religion": "", "denomination": "", "lat": -34.6269311, "lon": -58.3744998}, {"name": "La Iglesia de Jesucristo de los Santos de los \u00daltimos D\u00edas", "religion": "christian", "denomination": "mormon", "lat": -34.6583719, "lon": -58.4359388}, {"name": "Parroquia Ntra. Sra. de la Guardia", "religion": "christian", "denomination": "", "lat": -34.4531274, "lon": -58.5409165}, {"name": "", "religion": "christian", "denomination": "baptist", "lat": -34.4727072, "lon": -58.5173175}, {"name": "Parroquia Santo Domingo De Guzman", "religion": "christian", "denomination": "catholic", "lat": -34.4779765, "lon": -58.5021673}, {"name": "Parroquia Greco-Melquita Cat\u00f3lica \"Nuestra Se\u00f1ora del Perpetuo Socorro\"", "religion": "christian", "denomination": "greek_catholic", "lat": -34.5923998, "lon": -58.4275248}, {"name": "Dios es Amor", "religion": "christian", "denomination": "pentecostal", "lat": -34.6278117, "lon": -58.4642694}, {"name": "Russian Orthodox Church Abroad - Cathedral Of The Resurrection", "religion": "christian", "denomination": "orthodox", "lat": -34.5556777, "lon": -58.4777215}, {"name": "Iglesia San Juan Bautista", "religion": "christian", "denomination": "catholic", "lat": -34.6107073, "lon": -58.3778393}, {"name": "San Miguel Y Todos Los \u00c1ngeles", "religion": "christian", "denomination": "anglican", "lat": -34.4862112, "lon": -58.4980942}, {"name": "Sanidad Divina", "religion": "christian", "denomination": "", "lat": -34.5908438, "lon": -58.5299996}, {"name": "Iglesia Ebenezer", "religion": "", "denomination": "", "lat": -34.6173034, "lon": -58.5296379}, {"name": "Centro de Meditaci\u00f3n Budista Camino del Diamante", "religion": "buddhist", "denomination": "", "lat": -34.5614648, "lon": -58.4613034}, {"name": "Jesus Te Ama Argentina", "religion": "christian", "denomination": "", "lat": -34.6117197, "lon": -58.3819527}, {"name": "Iglesia Internacional de la Gracia de Dios", "religion": "", "denomination": "", "lat": -34.6023525, "lon": -58.379161}, {"name": "Iglesia San Bonifacio", "religion": "christian", "denomination": "catholic", "lat": -34.5529236, "lon": -58.4623329}, {"name": "Iglesia Evang\u00e9lica Bautista", "religion": "christian", "denomination": "", "lat": -34.5902634, "lon": -58.4028494}, {"name": "Inglesia Adventista del S\u00e9ptimo D\u00eda", "religion": "christian", "denomination": "seventh_day_adventist", "lat": -34.5516424, "lon": -58.4690948}, {"name": "Iglesia Cristiana China en Bs As", "religion": "christian", "denomination": "", "lat": -34.5780317, "lon": -58.4313916}, {"name": "Jabad Beit Menajem Belgrano", "religion": "jewish", "denomination": "", "lat": -34.5593883, "lon": -58.4571945}, {"name": "Scientology", "religion": "", "denomination": "", "lat": -34.5966334, "lon": -58.396237}, {"name": "A.C.I.L.B.A", "religion": "jewish", "denomination": "", "lat": -34.5865463, "lon": -58.4270366}, {"name": "Parroquia Ni\u00f1o Jes\u00fas de Praga", "religion": "christian", "denomination": "", "lat": -34.4814793, "lon": -58.5048022}, {"name": "Capilla Nuestra Se\u00f1ora del Carmen", "religion": "christian", "denomination": "", "lat": -34.6844217, "lon": -58.5410954}, {"name": "Casa Aguas Buenas", "religion": "", "denomination": "", "lat": -34.5696341, "lon": -58.4942592}, {"name": "Templo Evang\u00e9lico Bautista del Once", "religion": "christian", "denomination": "evangelical", "lat": -34.6058186, "lon": -58.4085359}, {"name": "La Catedral", "religion": "", "denomination": "", "lat": -34.6122332, "lon": -58.5153123}, {"name": "Iglesia Evang\u00e9lica Bautista", "religion": "christian", "denomination": "baptist", "lat": -34.6259323, "lon": -58.4569994}, {"name": "Parroquia Virgen de las Gracias", "religion": "christian", "denomination": "", "lat": -34.5484434, "lon": -58.5173778}, {"name": "Capilla Nuestra Se\u00f1ora de las Flores", "religion": "christian", "denomination": "catholic", "lat": -34.6429217, "lon": -58.4767067}, {"name": "Bas\u00edlica de San Jos\u00e9 de Flores", "religion": "christian", "denomination": "catholic", "lat": -34.6297158, "lon": -58.4631132}, {"name": "Nuestra Se\u00f1ora de los Buenos Aires", "religion": "christian", "denomination": "catholic", "lat": -34.6112564, "lon": -58.4522156}, {"name": "Santa Julia", "religion": "christian", "denomination": "catholic", "lat": -34.6233465, "lon": -58.4449016}, {"name": "Inmaculada Concepci\u00f3n", "religion": "christian", "denomination": "catholic", "lat": -34.5620828, "lon": -58.455547}, {"name": "Iglesia San Antonio de Padua", "religion": "christian", "denomination": "roman_catholic", "lat": -34.6293503, "lon": -58.5381172}, {"name": "Iglesia Nuestra Se\u00f1ora de Lourdes", "religion": "christian", "denomination": "roman_catholic", "lat": -34.6461347, "lon": -58.5365042}, {"name": "Iglesia Nueva Apost\u00f3lica", "religion": "christian", "denomination": "new_apostolic", "lat": -34.6436147, "lon": -58.5337938}, {"name": "Centro Cultural Isl\u00e1mico Rey Fahd", "religion": "muslim", "denomination": "", "lat": -34.5727672, "lon": -58.42525}, {"name": "Catedral Jes\u00fas Buen Pastor", "religion": "christian", "denomination": "roman_catholic", "lat": -34.5777381, "lon": -58.5383549}, {"name": "Iglesia San Salvador", "religion": "christian", "denomination": "roman_catholic", "lat": -34.6021755, "lon": -58.3930742}, {"name": "Nuestra Se\u00f1ora del Socorro", "religion": "christian", "denomination": "roman_catholic", "lat": -34.5933202, "lon": -58.3798567}, {"name": "Catedral de San Isidro", "religion": "christian", "denomination": "catholic", "lat": -34.467168, "lon": -58.5091671}, {"name": "Parroquia San Lucas", "religion": "christian", "denomination": "catholic", "lat": -34.5989793, "lon": -58.3980397}, {"name": "Bas\u00edlica del Sant\u00edsimo Sacramento", "religion": "christian", "denomination": "roman_catholic", "lat": -34.5957141, "lon": -58.3740106}, {"name": "Parroquia San Francisco de Asis", "religion": "christian", "denomination": "roman_catholic", "lat": -34.6653752, "lon": -58.4431814}, {"name": "Iglesia Sagrado Coraz\u00f3n", "religion": "christian", "denomination": "", "lat": -34.6508735, "lon": -58.3900204}, {"name": "Nuestra Se\u00f1ora del Rosario", "religion": "christian", "denomination": "roman_catholic", "lat": -34.5830201, "lon": -58.3787569}, {"name": "Santa Catalina de Siena", "religion": "christian", "denomination": "roman_catholic", "lat": -34.5995995, "lon": -58.3736548}, {"name": "Parroquia Nuestra Se\u00f1ora de Montserrat", "religion": "christian", "denomination": "roman_catholic", "lat": -34.6128007, "lon": -58.3827266}, {"name": "Capilla del Cristo Obrero", "religion": "christian", "denomination": "roman_catholic", "lat": -34.5777414, "lon": -58.3894368}, {"name": "Oratorio", "religion": "christian", "denomination": "roman_catholic", "lat": -34.6050463, "lon": -58.3720868}, {"name": "Bas\u00edlica Nuestra Se\u00f1ora de La Merced", "religion": "christian", "denomination": "roman_catholic", "lat": -34.6052878, "lon": -58.371807}, {"name": "Templo Tenrikyo", "religion": "tenrikyo", "denomination": "", "lat": -34.5229999, "lon": -58.5125121}, {"name": "Bas\u00edlica de Nuestra Se\u00f1ora del Pilar", "religion": "christian", "denomination": "catholic", "lat": -34.5867379, "lon": -58.3922626}, {"name": "Parroquia San Alfonso", "religion": "christian", "denomination": "roman_catholic", "lat": -34.5853613, "lon": -58.4825494}, {"name": "", "religion": "christian", "denomination": "", "lat": -34.5890218, "lon": -58.4579676}, {"name": "Inmaculado Coraz\u00f3n de Maria", "religion": "christian", "denomination": "catholic", "lat": -34.6242496, "lon": -58.3811123}, {"name": "Parroquia Santa Catalina de Alejandr\u00eda", "religion": "christian", "denomination": "catholic", "lat": -34.6268192, "lon": -58.3766255}, {"name": "", "religion": "christian", "denomination": "", "lat": -34.590321, "lon": -58.465392}, {"name": "Capilla del Cementerio Alem\u00e1n", "religion": "christian", "denomination": "protestant", "lat": -34.5896209, "lon": -58.4646687}, {"name": "Santa Francisca Romana", "religion": "christian", "denomination": "catholic", "lat": -34.5965921, "lon": -58.4956424}, {"name": "San Juan Mar\u00eda Vianney", "religion": "christian", "denomination": "catholic", "lat": -34.5982882, "lon": -58.4828888}, {"name": "Caacupe", "religion": "christian", "denomination": "", "lat": -34.5829182, "lon": -58.3825042}, {"name": "Parroqu\u00eda Sagrada Familia", "religion": "christian", "denomination": "catholic", "lat": -34.5547598, "lon": -58.4894631}, {"name": "Iglesia Santa Felicitas", "religion": "christian", "denomination": "catholic", "lat": -34.6372027, "lon": -58.3732648}, {"name": "Iglesia Presbiteriana Coreana Chunghyun", "religion": "christian", "denomination": "presbyterian", "lat": -34.6434473, "lon": -58.4634287}, {"name": "", "religion": "christian", "denomination": "catholic", "lat": -34.6325362, "lon": -58.4565384}, {"name": "Iglesia Evang\u00e9lica Adventista de Flores", "religion": "christian", "denomination": "evangelical", "lat": -34.6275677, "lon": -58.4639742}, {"name": "Buen Pastor", "religion": "christian", "denomination": "catholic", "lat": -34.6141786, "lon": -58.44247}, {"name": "Medalla Milagrosa", "religion": "christian", "denomination": "catholic", "lat": -34.6366104, "lon": -58.4466353}, {"name": "Parroqu\u00eda San Judas Tadeo", "religion": "christian", "denomination": "catholic", "lat": -34.64407, "lon": -58.4386286}, {"name": "Parroquia Santa Maria Madre del Pueblo", "religion": "christian", "denomination": "catholic", "lat": -34.6500735, "lon": -58.4338591}, {"name": "", "religion": "christian", "denomination": "", "lat": -34.6660294, "lon": -58.4653698}, {"name": "Iglesia del Sagrado Coraz\u00f3n de Jes\u00fas", "religion": "christian", "denomination": "catholic", "lat": -34.6243175, "lon": -58.3866885}, {"name": "San Crist\u00f3bal", "religion": "christian", "denomination": "", "lat": -34.6246007, "lon": -58.402563}, {"name": "Parroquia San Pedro Gonz\u00e1lez Telmo", "religion": "christian", "denomination": "catholic", "lat": -34.621015, "lon": -58.3706364}, {"name": "Parroquia Nuestra Se\u00f1ora de Balvanera", "religion": "christian", "denomination": "catholic", "lat": -34.608204, "lon": -58.4008134}, {"name": "Nuestra Se\u00f1ora del Huerto", "religion": "christian", "denomination": "catholic", "lat": -34.587801, "lon": -58.5037965}, {"name": "Iglesia S\u00f3lo Cristo Salva", "religion": "christian", "denomination": "evangelical", "lat": -34.5558951, "lon": -58.4953426}, {"name": "Parroquia San Ignacio de Loyola", "religion": "christian", "denomination": "catholic", "lat": -34.610485, "lon": -58.3739264}, {"name": "San Benito Abad", "religion": "christian", "denomination": "catholic", "lat": -34.5681686, "lon": -58.4384003}, {"name": "La Iglesia de Jesucristo de los Santos de los \u00daltimos D\u00edas", "religion": "christian", "denomination": "mormon", "lat": -34.6306396, "lon": -58.4913328}, {"name": "Catedral Metropolitana", "religion": "christian", "denomination": "catholic", "lat": -34.607476, "lon": -58.3732471}, {"name": "Iglesia Nuestra Se\u00f1ora del Rosario del Milagro", "religion": "christian", "denomination": "roman_catholic", "lat": -34.6772776, "lon": -58.4929403}, {"name": "", "religion": "christian", "denomination": "catholic", "lat": -34.5887729, "lon": -58.3682609}, {"name": "Parroquia Santa Teresa de Jes\u00fas", "religion": "christian", "denomination": "catholic", "lat": -34.5824163, "lon": -58.4112617}, {"name": "Parroquia Coraz\u00f3n de Jes\u00fas", "religion": "christian", "denomination": "catholic", "lat": -34.5755925, "lon": -58.5113767}, {"name": "Capilla Desatanudos", "religion": "christian", "denomination": "catholic", "lat": -34.6522612, "lon": -58.4013067}, {"name": "Iglesia Santa Cruz", "religion": "christian", "denomination": "catholic", "lat": -34.6215976, "lon": -58.4095412}, {"name": "", "religion": "christian", "denomination": "catholic", "lat": -34.6131484, "lon": -58.3715391}, {"name": "Parroquia Santa Teresita", "religion": "christian", "denomination": "", "lat": -34.5294835, "lon": -58.4885752}, {"name": "", "religion": "christian", "denomination": "roman_catholic", "lat": -34.5913255, "lon": -58.380666}, {"name": "Iglesia Universal del Reino de Dios", "religion": "christian", "denomination": "pentecostal", "lat": -34.6027934, "lon": -58.3801572}, {"name": "Iglesia Coraz\u00f3n Eucaristico de Jes\u00fas", "religion": "christian", "denomination": "catholic", "lat": -34.5935818, "lon": -58.3903987}, {"name": "La Iglesia de Jesucristo de los Santos de los \u00daltimos D\u00edas", "religion": "christian", "denomination": "mormon", "lat": -34.5890986, "lon": -58.4045729}, {"name": "Sinagoga de Ciudadela", "religion": "jewish", "denomination": "", "lat": -34.6437947, "lon": -58.5376076}, {"name": "Iglesia Bautista Victoria", "religion": "christian", "denomination": "baptist", "lat": -34.6445879, "lon": -58.5305241}, {"name": "Iglesia Adventista del S\u00e9ptimo D\u00eda", "religion": "christian", "denomination": "seventh_day_adventist", "lat": -34.6473728, "lon": -58.538577}, {"name": "Parroquia Santa Juana de Arco", "religion": "christian", "denomination": "roman_catholic", "lat": -34.6385614, "lon": -58.541769}, {"name": "Espacio Patrick Rice", "religion": "", "denomination": "", "lat": -34.5370609, "lon": -58.4628996}, {"name": "Convento Santa Teresa", "religion": "christian", "denomination": "catholic", "lat": -34.6066022, "lon": -58.423696}, {"name": "Parroquia San Luis Gonzaga", "religion": "christian", "denomination": "catholic", "lat": -34.698974, "lon": -58.5089823}, {"name": "Parroquia San Jos\u00e9 Obrero", "religion": "christian", "denomination": "catholic", "lat": -34.6842566, "lon": -58.5004876}, {"name": "Parroquia San Isidro Labrador", "religion": "christian", "denomination": "catholic", "lat": -34.5424189, "lon": -58.4746751}, {"name": "Parroquia Nuestra Se\u00f1ora de Caacup\u00e9", "religion": "christian", "denomination": "catholic", "lat": -34.6165025, "lon": -58.434144}, {"name": "Nuestra Se\u00f1ora de Loreto", "religion": "christian", "denomination": "catholic", "lat": -34.5856986, "lon": -58.408188}, {"name": "Cardenal Copello", "religion": "christian", "denomination": "catholic", "lat": -34.4524773, "lon": -58.5281758}, {"name": "Abad\u00eda de Santa Escol\u00e1stica", "religion": "christian", "denomination": "catholic", "lat": -34.4513531, "lon": -58.5316867}, {"name": "Nuestra Se\u00f1ora de los Milagros de Caacup\u00e9", "religion": "christian", "denomination": "", "lat": -34.6186819, "lon": -58.3530755}, {"name": "Escuela/Hogar Sagrado Coraz\u00f3n", "religion": "christian", "denomination": "", "lat": -34.6896883, "lon": -58.4166451}, {"name": "Parroquia Nuestra Se\u00f1ora de la Esperanza", "religion": "christian", "denomination": "catholic", "lat": -34.6171061, "lon": -58.3605387}, {"name": "Parroquia Sant\u00edsimo Nombre de Mar\u00eda", "religion": "christian", "denomination": "", "lat": -34.6654747, "lon": -58.5253009}, {"name": "Iglesia Nuestra Se\u00f1ora de Luj\u00e1n", "religion": "christian", "denomination": "", "lat": -34.5182497, "lon": -58.5465639}, {"name": "", "religion": "christian", "denomination": "", "lat": -34.6176988, "lon": -58.4104231}, {"name": "Centro Misional \"San Jos\u00e9 Mar\u00eda Tomasi\"", "religion": "christian", "denomination": "", "lat": -34.5310681, "lon": -58.544399}, {"name": "San Juan Evangelista", "religion": "christian", "denomination": "", "lat": -34.6369262, "lon": -58.3595756}, {"name": "Iglesia Sagrado Coraz\u00f3n", "religion": "christian", "denomination": "", "lat": -34.6484897, "lon": -58.347197}, {"name": "Parroquia Nuestra Se\u00f1ora de F\u00e1tima", "religion": "christian", "denomination": "roman_catholic", "lat": -34.661121, "lon": -58.5433091}, {"name": "", "religion": "christian", "denomination": "", "lat": -34.6691522, "lon": -58.4981049}, {"name": "Parroquia San Jos\u00e9", "religion": "christian", "denomination": "catholic", "lat": -34.4717067, "lon": -58.5191732}, {"name": "Nuestra Se\u00f1ora de Loreto", "religion": "christian", "denomination": "", "lat": -34.6874603, "lon": -58.3403133}, {"name": "Santa Mar\u00eda de La Lucila", "religion": "christian", "denomination": "catholic", "lat": -34.4949336, "lon": -58.4922992}, {"name": "Parroquia Santa Luc\u00eda", "religion": "christian", "denomination": "catholic", "lat": -34.6346172, "lon": -58.3748653}, {"name": "Templo Israelita Or Torah", "religion": "jewish", "denomination": "", "lat": -34.6377313, "lon": -58.372198}, {"name": "Capilla San Luis Rey", "religion": "christian", "denomination": "catholic", "lat": -34.5483117, "lon": -58.4461225}, {"name": "Santa Catalina de Siena", "religion": "christian", "denomination": "", "lat": -34.6633936, "lon": -58.3443042}, {"name": "La Iglesia de Jesucristo de los Santos de los \u00daltimos D\u00edas", "religion": "christian", "denomination": "mormon", "lat": -34.6353984, "lon": -58.4107458}, {"name": "Iglesia Nueva Apost\u00f3lica", "religion": "christian", "denomination": "", "lat": -34.627135, "lon": -58.3743963}, {"name": "Parroquia San Bartolome Apostol", "religion": "christian", "denomination": "", "lat": -34.6366672, "lon": -58.4153998}, {"name": "", "religion": "christian", "denomination": "", "lat": -34.6315686, "lon": -58.37611}, {"name": "Iglesia Nueva Apolistica", "religion": "christian", "denomination": "", "lat": -34.6365826, "lon": -58.3670341}, {"name": "Parroquia San Antonio Mar\u00eda Zaccaria", "religion": "christian", "denomination": "roman_catholic", "lat": -34.6482225, "lon": -58.3724459}, {"name": "Iglesia Evangelica Cristo Te Ama", "religion": "christian", "denomination": "", "lat": -34.6291629, "lon": -58.363179}, {"name": "", "religion": "christian", "denomination": "", "lat": -34.6442289, "lon": -58.3606886}, {"name": "Universal", "religion": "christian", "denomination": "", "lat": -34.6587585, "lon": -58.4423144}, {"name": "", "religion": "christian", "denomination": "", "lat": -34.5713113, "lon": -58.4353232}, {"name": "Parroquia Cristo Obrero y San Blas", "religion": "christian", "denomination": "", "lat": -34.6631557, "lon": -58.4378002}, {"name": "Parroquia San Juan Diego", "religion": "christian", "denomination": "", "lat": -34.6635512, "lon": -58.4690211}, {"name": "Ministerio Sion", "religion": "christian", "denomination": "", "lat": -34.6418008, "lon": -58.4210427}, {"name": "Ministerio Jesucristo Pan de Vida", "religion": "christian", "denomination": "", "lat": -34.6395272, "lon": -58.4208038}, {"name": "Parroquia Jes\u00fas de Nazaret", "religion": "christian", "denomination": "", "lat": -34.640878, "lon": -58.4230345}, {"name": "Iglesia Paloma de la Paz", "religion": "christian", "denomination": "", "lat": -34.6474875, "lon": -58.4179193}, {"name": "", "religion": "christian", "denomination": "", "lat": -34.6429352, "lon": -58.4156236}, {"name": "Iglesia Adventista del Septimo Dia", "religion": "christian", "denomination": "", "lat": -34.632582, "lon": -58.4248846}, {"name": "Iglesia Calvario", "religion": "christian", "denomination": "", "lat": -34.6408876, "lon": -58.4310145}, {"name": "Jesucristo es Poderoso", "religion": "christian", "denomination": "", "lat": -34.6313459, "lon": -58.427541}, {"name": "Jes\u00fas Camino de Vida", "religion": "christian", "denomination": "", "lat": -34.643466, "lon": -58.4446176}, {"name": "", "religion": "christian", "denomination": "", "lat": -34.6408714, "lon": -58.4423635}, {"name": "Iglesia del Nazareno", "religion": "christian", "denomination": "catholic", "lat": -34.4956494, "lon": -58.514133}, {"name": "Iglesia Santa Teresita del Ni\u00f1o Jes\u00fas", "religion": "christian", "denomination": "catholic", "lat": -34.4922926, "lon": -58.5095853}, {"name": "Restauraci\u00f3n y Avivamiento", "religion": "christian", "denomination": "", "lat": -34.5692376, "lon": -58.5405973}, {"name": "Iglesia Evangelica", "religion": "christian", "denomination": "", "lat": -34.6400877, "lon": -58.4240859}, {"name": "Iglesia Presbiteriana Che-Il Coreana", "religion": "christian", "denomination": "", "lat": -34.639578, "lon": -58.4490226}, {"name": "", "religion": "christian", "denomination": "", "lat": -34.6402367, "lon": -58.4479498}, {"name": "", "religion": "christian", "denomination": "", "lat": -34.6288285, "lon": -58.4045093}, {"name": "Esperanza del Cielo", "religion": "christian", "denomination": "", "lat": -34.6326722, "lon": -58.4091853}, {"name": "", "religion": "christian", "denomination": "", "lat": -34.6423408, "lon": -58.4343416}, {"name": "", "religion": "christian", "denomination": "", "lat": -34.6348057, "lon": -58.4205275}, {"name": "Nuestra Se\u00f1ora de la Consolaci\u00f3n", "religion": "christian", "denomination": "catholic", "lat": -34.6038604, "lon": -58.4648732}, {"name": "C\u00e1ritas San Mart\u00edn Casa Diocesana Mons. Manuel Men\u00e9ndez", "religion": "christian", "denomination": "catholic", "lat": -34.5739759, "lon": -58.5420693}, {"name": "Asamblea Cristiana Dios es Amor", "religion": "christian", "denomination": "", "lat": -34.6379972, "lon": -58.3811711}, {"name": "Iglesia Aviva Lugano", "religion": "christian", "denomination": "", "lat": -34.6739513, "lon": -58.4714007}, {"name": "Parroquia Mar\u00eda Madre de la Esperanza", "religion": "christian", "denomination": "", "lat": -34.6731319, "lon": -58.4686136}, {"name": "Iglesia de Dios", "religion": "christian", "denomination": "", "lat": -34.5721965, "lon": -58.5426661}, {"name": "Iglesia Aliento de Vida A.D.V.", "religion": "christian", "denomination": "", "lat": -34.5723318, "lon": -58.542349}, {"name": "", "religion": "christian", "denomination": "", "lat": -34.6968294, "lon": -58.4787312}, {"name": "Universal", "religion": "christian", "denomination": "", "lat": -34.6503621, "lon": -58.4158617}, {"name": "Iglesia del Dios Viviente", "religion": "christian", "denomination": "", "lat": -34.6982876, "lon": -58.4868181}, {"name": "Gracia y Gloria", "religion": "christian", "denomination": "", "lat": -34.6508639, "lon": -58.403454}, {"name": "", "religion": "christian", "denomination": "catholic", "lat": -34.4990305, "lon": -58.4999122}, {"name": "Argentina para Jesucristo", "religion": "", "denomination": "", "lat": -34.5155317, "lon": -58.5139614}, {"name": "Iglesia Jes\u00fas Te Ama", "religion": "christian", "denomination": "", "lat": -34.5318056, "lon": -58.5133644}, {"name": "Universal", "religion": "christian", "denomination": "", "lat": -34.5285597, "lon": -58.5209221}, {"name": "Templo Evangelico Pentecostal", "religion": "christian", "denomination": "", "lat": -34.5362456, "lon": -58.5297987}, {"name": "Universal", "religion": "christian", "denomination": "", "lat": -34.5513368, "lon": -58.5120616}, {"name": "Ministerios Ebenzer Iglesia de Cristo Vida en Jes\u00fas", "religion": "christian", "denomination": "", "lat": -34.5209043, "lon": -58.5231354}, {"name": "Parroquia Sagrada Familia", "religion": "christian", "denomination": "roman_catholic", "lat": -34.5256831, "lon": -58.532696}, {"name": "Casa del Alfarero", "religion": "christian", "denomination": "", "lat": -34.5403578, "lon": -58.5423635}, {"name": "Escuela Cientifica Basilio", "religion": "christian", "denomination": "", "lat": -34.579315, "lon": -58.5417936}, {"name": "La Iglesia de Jesucristo de los Santos de los \u00daltimos D\u00edas", "religion": "christian", "denomination": "latter_day_saints", "lat": -34.5205728, "lon": -58.4839363}, {"name": "Mar\u00eda Inmaculada", "religion": "christian", "denomination": "catholic", "lat": -34.5225485, "lon": -58.4891859}, {"name": "Iglesia Cristiana Evang\u00e9lica Libertador", "religion": "christian", "denomination": "evangelical", "lat": -34.5363244, "lon": -58.4669375}, {"name": "Iglesia Cristiana Evangelica", "religion": "christian", "denomination": "", "lat": -34.6022071, "lon": -58.5290505}, {"name": "Mensaje de Paz y de Vida", "religion": "christian", "denomination": "evangelical", "lat": -34.5672487, "lon": -58.5196782}, {"name": "MJA tu Casa!", "religion": "christian", "denomination": "", "lat": -34.5826921, "lon": -58.5402526}, {"name": "Parroquia Santa Mar\u00eda de la Cruz", "religion": "christian", "denomination": "catholic", "lat": -34.4661071, "lon": -58.5141057}, {"name": "Iglesia Adventista de Septimo Dia", "religion": "christian", "denomination": "", "lat": -34.5510214, "lon": -58.52986}, {"name": "Iglesia Cuadrangular Argentina - Las Columnas", "religion": "", "denomination": "", "lat": -34.4737044, "lon": -58.5316914}, {"name": "Parroquia Nuestra Se\u00f1ora de Lourdes", "religion": "christian", "denomination": "catholic", "lat": -34.5632394, "lon": -58.4675511}, {"name": "Parroquia Esp\u00edritu Santo - Obispado de San Isidro", "religion": "christian", "denomination": "catholic", "lat": -34.4780174, "lon": -58.5383308}, {"name": "", "religion": "christian", "denomination": "", "lat": -34.694643, "lon": -58.4359971}, {"name": "Nuestra Se\u00f1ora del Carmen", "religion": "christian", "denomination": "catholic", "lat": -34.57302, "lon": -58.4886319}, {"name": "Iglesia Cristiana Evangelica", "religion": "christian", "denomination": "evangelical", "lat": -34.5683905, "lon": -58.4757701}, {"name": "Parroquia Nuestra Se\u00f1ora de la Paz", "religion": "christian", "denomination": "catholic", "lat": -34.5036906, "lon": -58.4941853}, {"name": "El Buen Pastor", "religion": "christian", "denomination": "methodist", "lat": -34.5757876, "lon": -58.44853}, {"name": "La Casa Del Alfarera", "religion": "christian", "denomination": "", "lat": -34.5893788, "lon": -58.5099894}, {"name": "Parroquia de San Jos\u00e9 del Talar y Santuario Virgen Mar\u00eda que desata los nudos", "religion": "christian", "denomination": "catholic", "lat": -34.5913932, "lon": -58.489805}, {"name": "Parroquia Santa Magdalena Sof\u00eda Barat", "religion": "christian", "denomination": "", "lat": -34.5877891, "lon": -58.4930502}, {"name": "Parroquia Soledad de Maria Santisima", "religion": "christian", "denomination": "", "lat": -34.5955071, "lon": -58.517686}, {"name": "Iglesia Cristiana Evang\u00e9lica", "religion": "christian", "denomination": "", "lat": -34.5825481, "lon": -58.4427709}, {"name": "Universal", "religion": "christian", "denomination": "", "lat": -34.6164875, "lon": -58.5287775}, {"name": "Iglesia Evangelica Asamblea Cristiana", "religion": "christian", "denomination": "", "lat": -34.6078646, "lon": -58.5262564}, {"name": "San Pablo Apostol", "religion": "christian", "denomination": "roman_catholic", "lat": -34.5795722, "lon": -58.4526858}, {"name": "Iglesia Evang\u00e9lica Alianza", "religion": "christian", "denomination": "evangelical", "lat": -34.5122318, "lon": -58.4905409}, {"name": "Iglesia Cristiana Evang\u00e9lica", "religion": "christian", "denomination": "", "lat": -34.5770538, "lon": -58.4535116}, {"name": "Iglesia Evang\u00e9lica", "religion": "christian", "denomination": "", "lat": -34.5797061, "lon": -58.4539758}, {"name": "Iglesia Evangelica", "religion": "christian", "denomination": "", "lat": -34.6111844, "lon": -58.4895805}, {"name": "Perfecta Libertad", "religion": "christian", "denomination": "", "lat": -34.5688316, "lon": -58.476563}, {"name": "Iglesia Evangelica Bautista", "religion": "christian", "denomination": "", "lat": -34.5695836, "lon": -58.5049618}, {"name": "Parroquia Dulc\u00edsimo Nombre de Jes\u00fas", "religion": "christian", "denomination": "catholic", "lat": -34.5605001, "lon": -58.4907281}, {"name": "Iglesia Evangelica", "religion": "christian", "denomination": "", "lat": -34.5661133, "lon": -58.459143}, {"name": "Universal", "religion": "christian", "denomination": "", "lat": -34.5680273, "lon": -58.4762053}, {"name": "Parroquia Santiago Ap\u00f3stol", "religion": "christian", "denomination": "catholic", "lat": -34.5481257, "lon": -58.4531532}, {"name": "Iglesia Cristiana Dios de Pactos", "religion": "christian", "denomination": "", "lat": -34.6074713, "lon": -58.4880953}, {"name": "Parroquia Santa Mar\u00eda de Los \u00c1ngeles", "religion": "christian", "denomination": "roman_catholic", "lat": -34.5598545, "lon": -58.479399}, {"name": "Iglesia Nueva Apostolica", "religion": "christian", "denomination": "", "lat": -34.5959038, "lon": -58.4580507}, {"name": "Iglesia Evangelica Alianza Cristiana", "religion": "christian", "denomination": "", "lat": -34.5372756, "lon": -58.4811244}, {"name": "Saddleback Church", "religion": "christian", "denomination": "", "lat": -34.5964067, "lon": -58.4189093}, {"name": "San Jorge", "religion": "christian", "denomination": "orthodox", "lat": -34.5936359, "lon": -58.428471}, {"name": "", "religion": "christian", "denomination": "", "lat": -34.6178907, "lon": -58.3789634}, {"name": "Iglesia Presbiteriana San Andr\u00e9s", "religion": "christian", "denomination": "presbyterian", "lat": -34.6123634, "lon": -58.3743397}, {"name": "Iglesia MU-I", "religion": "christian", "denomination": "presbyterian", "lat": -34.6030452, "lon": -58.4877733}, {"name": "Centro Cristiano Vida", "religion": "christian", "denomination": "", "lat": -34.4748326, "lon": -58.5299196}, {"name": "Iglesia para la Vida", "religion": "christian", "denomination": "", "lat": -34.6016154, "lon": -58.4668087}, {"name": "Saion del Reino de los Testigos de Jehov\u00e1", "religion": "christian", "denomination": "jehovahs_witness", "lat": -34.6207249, "lon": -58.3780115}, {"name": "San Gabriel Arc\u00e1ngel", "religion": "christian", "denomination": "", "lat": -34.6369933, "lon": -58.500026}, {"name": "Rey de Reyes U.A.D.", "religion": "christian", "denomination": "", "lat": -34.6665895, "lon": -58.5297458}, {"name": "Universal", "religion": "christian", "denomination": "", "lat": -34.6391694, "lon": -58.5231342}, {"name": "Iglesia Cristiana Evangelica Eben-Ezer", "religion": "christian", "denomination": "evangelical", "lat": -34.6734735, "lon": -58.5283703}, {"name": "Parroqua Nuestra Se\u00f1ora de Lourdes", "religion": "christian", "denomination": "catholic", "lat": -34.4633287, "lon": -58.5294394}, {"name": "Parroquia de la Sant\u00edsima Trinidad", "religion": "christian", "denomination": "catholic", "lat": -34.5495131, "lon": -58.4684458}, {"name": "Cumbre Mundial de los Milagros", "religion": "christian", "denomination": "", "lat": -34.6106872, "lon": -58.4192947}, {"name": "Una Esperanza de Vida", "religion": "christian", "denomination": "", "lat": -34.6729147, "lon": -58.5347244}, {"name": "Iglesia del Centro", "religion": "christian", "denomination": "", "lat": -34.6175739, "lon": -58.3882397}, {"name": "Ej\u00e9rcito de Salvaci\u00f3n", "religion": "christian", "denomination": "", "lat": -34.6611701, "lon": -58.5041252}, {"name": "Universal", "religion": "christian", "denomination": "", "lat": -34.6611834, "lon": -58.516595}, {"name": "Iglesia Cristiana Roca Eterna", "religion": "christian", "denomination": "", "lat": -34.6657569, "lon": -58.4899983}, {"name": "Universal", "religion": "christian", "denomination": "", "lat": -34.6107268, "lon": -58.4095382}, {"name": "El Taller del Maestro", "religion": "christian", "denomination": "christian", "lat": -34.6819285, "lon": -58.5135047}, {"name": "Universal", "religion": "christian", "denomination": "", "lat": -34.6830291, "lon": -58.5149697}, {"name": "Iglesia Mar\u00eda Inmaculada", "religion": "christian", "denomination": "roman_catholic", "lat": -34.5982447, "lon": -58.4123906}, {"name": "Parroquia Nuestra Se\u00f1ora de la Visitaci\u00f3n", "religion": "christian", "denomination": "catholic", "lat": -34.6218262, "lon": -58.4728226}, {"name": "Escuela Cienifica Basilio", "religion": "christian", "denomination": "disciples_of_christ", "lat": -34.613735, "lon": -58.4256536}, {"name": "Iglesia Evangelista Congregacional Armenia Sant\u00edsima Trinidad", "religion": "christian", "denomination": "evangelical", "lat": -34.6250643, "lon": -58.466532}, {"name": "Parroquia Nuestra Se\u00f1ora del Valle", "religion": "christian", "denomination": "roman_catholic", "lat": -34.5976161, "lon": -58.4135896}, {"name": "Parroquia Reina de los Ap\u00f3stoles", "religion": "christian", "denomination": "catholic", "lat": -34.625139, "lon": -58.4686367}, {"name": "", "religion": "christian", "denomination": "", "lat": -34.5992526, "lon": -58.3777615}, {"name": "Lds Church", "religion": "christian", "denomination": "mormon", "lat": -34.6588773, "lon": -58.4798253}, {"name": "Ministerio Cielos Abiertos", "religion": "christian", "denomination": "", "lat": -34.6330504, "lon": -58.4801868}, {"name": "Iglesia Cristiana Fuente de Vida", "religion": "christian", "denomination": "", "lat": -34.648921, "lon": -58.4689085}, {"name": "Puerta del Cielo", "religion": "christian", "denomination": "", "lat": -34.6150873, "lon": -58.4101974}, {"name": "Parroquia de San Nicol\u00e1s de Bari", "religion": "christian", "denomination": "catholic", "lat": -34.5960181, "lon": -58.3865647}, {"name": "Iglesia Cristiana Evangelica", "religion": "christian", "denomination": "evangelical", "lat": -34.6332163, "lon": -58.4691843}, {"name": "Templo Evang\u00e9lico", "religion": "christian", "denomination": "", "lat": -34.6251525, "lon": -58.4237969}, {"name": "Nuestra Se\u00f1ora de Lujan", "religion": "christian", "denomination": "catholic", "lat": -34.6419389, "lon": -58.4695354}, {"name": "Parroquia Santa Mar\u00eda", "religion": "christian", "denomination": "", "lat": -34.6180116, "lon": -58.4281841}, {"name": "Vida y Esperanza", "religion": "christian", "denomination": "baptist", "lat": -34.6366547, "lon": -58.4720082}, {"name": "San Jos\u00e9 de Calasanz", "religion": "christian", "denomination": "", "lat": -34.6263566, "lon": -58.427492}, {"name": "Bas\u00edlica Auxiliadora", "religion": "christian", "denomination": "", "lat": -34.6143493, "lon": -58.4228773}, {"name": "Ciudad de Refugio", "religion": "christian", "denomination": "baptist", "lat": -34.6464869, "lon": -58.5405219}, {"name": "Iglesia Cristo la Soluci\u00f3n", "religion": "christian", "denomination": "", "lat": -34.6308032, "lon": -58.4594601}, {"name": "Iglesia Adventista del Septimo D\u00eda", "religion": "christian", "denomination": "", "lat": -34.6327173, "lon": -58.4659757}, {"name": "Parroquia Nuestra Se\u00f1ora de la Consolaci\u00f3n", "religion": "christian", "denomination": "catholic", "lat": -34.5949002, "lon": -58.430353}, {"name": "Parroquia Nuestra Sra de la Rabida", "religion": "christian", "denomination": "catholic", "lat": -34.6137933, "lon": -58.3877568}, {"name": "Iglesia Universal Evangelista", "religion": "christian", "denomination": "", "lat": -34.6034953, "lon": -58.4222303}, {"name": "La Iglesia de Jesucristo de los Santos de los \u00daltimos D\u00edas", "religion": "christian", "denomination": "mormon", "lat": -34.5242779, "lon": -58.5498478}, {"name": "Luz del Porvenir", "religion": "christian", "denomination": "", "lat": -34.5730895, "lon": -58.4837507}, {"name": "Parroquia de San Benito", "religion": "christian", "denomination": "catholic", "lat": -34.5684123, "lon": -58.4382599}, {"name": "Parroquia Jes\u00fas en el Huerto de los Olivos", "religion": "christian", "denomination": "catholic", "lat": -34.5094515, "lon": -58.4868484}, {"name": "Nuestra Se\u00f1ora de la Guardia", "religion": "christian", "denomination": "catholic", "lat": -34.5377262, "lon": -58.4970886}, {"name": "Seminario Metropolitano de Buenos Aires", "religion": "christian", "denomination": "catholic", "lat": -34.4639241, "lon": -58.5125292}, {"name": "Iglesia Transparente", "religion": "christian", "denomination": "evangelical", "lat": -34.6219052, "lon": -58.5259001}, {"name": "Capilla Nuestra Se\u00f1ora de F\u00e1tima", "religion": "christian", "denomination": "roman_catholic", "lat": -34.4896701, "lon": -58.5033278}, {"name": "Capilla Stella Maris", "religion": "christian", "denomination": "roman_catholic", "lat": -34.459301, "lon": -58.5102742}, {"name": "Comunidad Cristiana Condarco", "religion": "christian", "denomination": "", "lat": -34.6158972, "lon": -58.4747023}, {"name": "", "religion": "christian", "denomination": "", "lat": -34.6897276, "lon": -58.4248233}, {"name": "Salo\u00f3n Parroquial Monse\u00f1or F. Berisso", "religion": "christian", "denomination": "", "lat": -34.674262, "lon": -58.3454053}, {"name": "", "religion": "christian", "denomination": "", "lat": -34.6694147, "lon": -58.3541696}, {"name": "La Roca Iglesia Cristiana", "religion": "christian", "denomination": "", "lat": -34.6526855, "lon": -58.3470497}, {"name": "Iglesia Christian Evangelica", "religion": "christian", "denomination": "", "lat": -34.6782774, "lon": -58.3863569}, {"name": "", "religion": "christian", "denomination": "", "lat": -34.6810759, "lon": -58.4258952}, {"name": "Iglesia Cristiana Evangelica", "religion": "christian", "denomination": "", "lat": -34.6746127, "lon": -58.4287029}, {"name": "Iglesia del Puente", "religion": "christian", "denomination": "", "lat": -34.696365, "lon": -58.3915821}, {"name": "Iglesia Evangelica El Redentor", "religion": "christian", "denomination": "", "lat": -34.6946433, "lon": -58.4319532}, {"name": "Villa Seminario", "religion": "christian", "denomination": "", "lat": -34.6810502, "lon": -58.4044399}, {"name": "Iglesia El Faro", "religion": "christian", "denomination": "", "lat": -34.6966622, "lon": -58.4225823}, {"name": "", "religion": "christian", "denomination": "", "lat": -34.6888973, "lon": -58.4015563}, {"name": "Iglesia Pentecostal de la Trinidad", "religion": "christian", "denomination": "", "lat": -34.6961416, "lon": -58.4248239}, {"name": "Iglesia Nuevo", "religion": "christian", "denomination": "", "lat": -34.6990978, "lon": -58.3908946}, {"name": "Parroquia Nuestra Se\u00f1ora de los Trabajadores", "religion": "christian", "denomination": "", "lat": -34.6975243, "lon": -58.435209}, {"name": "Basilica Nuestra Se\u00f1ora de La Piedad del Monte Calvario", "religion": "christian", "denomination": "catholic", "lat": -34.6081196, "lon": -58.3879727}, {"name": "", "religion": "christian", "denomination": "", "lat": -34.6998186, "lon": -58.3844738}, {"name": "Parroquia San Pedro Armengol", "religion": "christian", "denomination": "", "lat": -34.685946, "lon": -58.386522}, {"name": "Capilla San Ram\u00f3n Nonato", "religion": "christian", "denomination": "catholic", "lat": -34.6888982, "lon": -58.3897811}, {"name": "Parroquia Madre de Misericordia", "religion": "christian", "denomination": "catholic", "lat": -34.6769925, "lon": -58.394448}, {"name": "Iglesia Nueva Apostolica", "religion": "", "denomination": "", "lat": -34.6916004, "lon": -58.3753485}, {"name": "Iglesia Nueva Apostolica", "religion": "christian", "denomination": "", "lat": -34.6924647, "lon": -58.3737154}, {"name": "Virgen Inmaculada de Lourdes", "religion": "christian", "denomination": "catholic", "lat": -34.6263565, "lon": -58.4549552}, {"name": "Catedral Nuestra Se\u00f1ora del Patrocinio (Pokrov)", "religion": "christian", "denomination": "ukrainian_greek_catholic", "lat": -34.6356403, "lon": -58.4814909}, {"name": "", "religion": "christian", "denomination": "", "lat": -34.6774659, "lon": -58.5096611}, {"name": "Iglesia San Roque", "religion": "christian", "denomination": "", "lat": -34.6764263, "lon": -58.5131856}, {"name": "Parroquia San Francisco Solano", "religion": "christian", "denomination": "", "lat": -34.6413348, "lon": -58.4936326}, {"name": "Parroquia Resurrecci\u00f2n del Se\u00f1or", "religion": "christian", "denomination": "catholic", "lat": -34.4988825, "lon": -58.526322}, {"name": "Gran Templo Paso", "religion": "jewish", "denomination": "orthodox", "lat": -34.6042276, "lon": -58.4032793}, {"name": "Shaar\u00e9 Tefil\u00e1", "religion": "jewish", "denomination": "orthodox", "lat": -34.6003988, "lon": -58.4030867}, {"name": "Parroquia Maria Inmaculada", "religion": "christian", "denomination": "catholic", "lat": -34.5863537, "lon": -58.5484659}, {"name": "Parroquia Santo Cristo", "religion": "christian", "denomination": "", "lat": -34.471114, "lon": -58.5306622}, {"name": "Nuestra Se\u00f1ora de La Salud", "religion": "christian", "denomination": "catholic", "lat": -34.6253447, "lon": -58.5240774}, {"name": "Restauraci\u00f3n de Fe", "religion": "christian", "denomination": "evangelical", "lat": -34.6430924, "lon": -58.4454085}, {"name": "Asociacion Comunidad Israelita Latina de Buenos Aires", "religion": "jewish", "denomination": "", "lat": -34.6215873, "lon": -58.3768166}, {"name": "San Miguel Arc\u00e1ngel", "religion": "christian", "denomination": "catholic", "lat": -34.6074701, "lon": -58.3791375}, {"name": "Catedral San Juan Bautista", "religion": "christian", "denomination": "anglican", "lat": -34.6046478, "lon": -58.3712523}, {"name": "Capilla Mar\u00eda Madre La Esperanza", "religion": "christian", "denomination": "", "lat": -34.6333781, "lon": -58.3544627}, {"name": "Catedral de San Mar\u00f3n", "religion": "christian", "denomination": "", "lat": -34.5980525, "lon": -58.3789636}, {"name": "Catedral ortodoxa rusa de la Sant\u00edsima Trinidad", "religion": "christian", "denomination": "russian_orthodox", "lat": -34.6251002, "lon": -58.3700364}, {"name": "Parroquia Monte Calvario", "religion": "christian", "denomination": "", "lat": -34.6160711, "lon": -58.5490655}, {"name": "Nuestra Senora del Perpetuo Socorro", "religion": "christian", "denomination": "catholic", "lat": -34.6290915, "lon": -58.5146544}, {"name": "San Cayetano", "religion": "christian", "denomination": "catholic", "lat": -34.6378496, "lon": -58.5282718}, {"name": "Capilla Nuestra Se\u00f1ora del Huerto", "religion": "christian", "denomination": "", "lat": -34.5843261, "lon": -58.4015699}, {"name": "Templo Beit Jabad Puerto Madero", "religion": "jewish", "denomination": "", "lat": -34.6113264, "lon": -58.3597218}, {"name": "Nuestra Se\u00f1ora de Guadalupe", "religion": "christian", "denomination": "catholic", "lat": -34.5893516, "lon": -58.4174034}, {"name": "Iglesia Don Orione", "religion": "christian", "denomination": "roman_catholic", "lat": -34.6782639, "lon": -58.4866058}, {"name": "Parroquia San Juan Bautista", "religion": "christian", "denomination": "", "lat": -34.6718722, "lon": -58.4095922}, {"name": "Parroquia San Rafel Arc\u00e1ngel", "religion": "christian", "denomination": "catholic", "lat": -34.6153344, "lon": -58.5224801}, {"name": "Carmelo Santa Teresita", "religion": "christian", "denomination": "catholic", "lat": -34.5782311, "lon": -58.5121591}, {"name": "Escuela Cient\u00edfica Basilio", "religion": "christian", "denomination": "disciples_of_christ", "lat": -34.5420776, "lon": -58.4770047}, {"name": "Escuela Cient\u00edfica Basilio", "religion": "christian", "denomination": "disciples_of_christ", "lat": -34.6122823, "lon": -58.4252181}, {"name": "Escuela Cient\u00edfica Basilio", "religion": "christian", "denomination": "disciples_of_christ", "lat": -34.5644752, "lon": -58.4652252}, {"name": "Parroquia Presentaci\u00f3n del Se\u00f1or", "religion": "christian", "denomination": "roman_catholic", "lat": -34.5492418, "lon": -58.4836978}, {"name": "Comunidad NCI-Emanu El", "religion": "jewish", "denomination": "", "lat": -34.5580457, "lon": -58.4554675}, {"name": "Comunidad Bet El", "religion": "jewish", "denomination": "", "lat": -34.5696318, "lon": -58.4641771}, {"name": "Iglesia Santa Teresa de Jes\u00fas", "religion": "christian", "denomination": "roman_catholic", "lat": -34.6008258, "lon": -58.4080576}, {"name": "Akedat Itzjak", "religion": "jewish", "denomination": "", "lat": -34.5992108, "lon": -58.4083672}, {"name": "Asociacion Hebrea Argentina de Socorros Mutuos", "religion": "jewish", "denomination": "", "lat": -34.6026923, "lon": -58.4046199}, {"name": "Asociacion Israelita de Floresta Norte", "religion": "jewish", "denomination": "", "lat": -34.6290903, "lon": -58.5000435}, {"name": "Asociaci\u00f3n Israelita Or Mizrah", "religion": "jewish", "denomination": "jewish", "lat": -34.5583287, "lon": -58.4610239}, {"name": "La Iglesia de Jesucristo de los Santos de los \u00daltimos D\u00edas", "religion": "christian", "denomination": "", "lat": -34.6156126, "lon": -58.4672049}, {"name": "Parroquia San Pantale\u00f3n - San Teodosio", "religion": "christian", "denomination": "catholic", "lat": -34.678934, "lon": -58.5362329}, {"name": "Santuario San Ram\u00f3n Nonato", "religion": "christian", "denomination": "", "lat": -34.628124, "lon": -58.501575}, {"name": "Iglesia Cristiana Ev\u00e1ngelica", "religion": "christian", "denomination": "evangelical", "lat": -34.6309277, "lon": -58.4918725}, {"name": "Parroquia Nuestra Se\u00f1ora de La Candelaria", "religion": "christian", "denomination": "catholic", "lat": -34.6296598, "lon": -58.4816439}, {"name": "Nuestra Se\u00f1ora de la Paz", "religion": "christian", "denomination": "catholic", "lat": -34.6330458, "lon": -58.4744393}, {"name": "Iglesia Evangelica Metodista Esperanza", "religion": "christian", "denomination": "", "lat": -34.6505076, "lon": -58.4427713}, {"name": "Parroquia Bonifacio", "religion": "christian", "denomination": "catholic", "lat": -34.6486287, "lon": -58.4722713}, {"name": "Parroquia Madre de Dios", "religion": "", "denomination": "", "lat": -34.6594697, "lon": -58.4760912}, {"name": "Capilla San Antonio", "religion": "christian", "denomination": "", "lat": -34.6473478, "lon": -58.4452772}, {"name": "Nuestra Se\u00f1ora de la Misericordia", "religion": "christian", "denomination": "", "lat": -34.6613243, "lon": -58.4910084}, {"name": "San Felipe Neri", "religion": "christian", "denomination": "", "lat": -34.6622136, "lon": -58.506444}, {"name": "Nuestra Se\u00f1ora de las Nieves", "religion": "christian", "denomination": "catholic", "lat": -34.6428721, "lon": -58.5200953}, {"name": "", "religion": "christian", "denomination": "", "lat": -34.6609268, "lon": -58.4462875}, {"name": "Corpus Domini", "religion": "christian", "denomination": "catholic", "lat": -34.64085, "lon": -58.5084083}, {"name": "Catedral Avellaneda-Lan\u00fas", "religion": "christian", "denomination": "catholic", "lat": -34.662993, "lon": -58.3658415}, {"name": "Capilla del Santo Cristo", "religion": "christian", "denomination": "catholic", "lat": -34.5684242, "lon": -58.4387463}, {"name": "", "religion": "", "denomination": "", "lat": -34.6247757, "lon": -58.4086521}, {"name": "Manatial de Bendiciones", "religion": "", "denomination": "", "lat": -34.5788163, "lon": -58.536043}, {"name": "Iglesia de Jesucristo de los Santos de los \u00daltimos D\u00edas", "religion": "movimiento_de_los_santos_de_los_\u00faltimos_d\u00edas", "denomination": "", "lat": -34.6743601, "lon": -58.5390288}, {"name": "Parroquia Nuestra Se\u00f1ora de la Monta\u00f1a", "religion": "christian", "denomination": "", "lat": -34.6828543, "lon": -58.5264976}, {"name": "Capilla del Sant\u00edsimo Sacramento", "religion": "christian", "denomination": "catholic", "lat": -34.6631308, "lon": -58.3601245}, {"name": "Capilla Belgrano de la Iglesia de los Santos de los \u00daltimos D\u00edas", "religion": "christian", "denomination": "iglesia_de_los_santos_de_los_\u00faltimos_d\u00edas", "lat": -34.565319, "lon": -58.4459651}, {"name": "Comunidad Cristiana San Mart\u00edn", "religion": "christian", "denomination": "", "lat": -34.5792947, "lon": -58.5447836}, {"name": "Parroquia Nuestra Se\u00f1ora de Luj\u00e1n", "religion": "christian", "denomination": "", "lat": -34.5596682, "lon": -58.5373639}, {"name": "Parroquia San Jos\u00e9", "religion": "christian", "denomination": "", "lat": -34.5708887, "lon": -58.5247478}, {"name": "Capilla Inmaculada Concepci\u00f3n", "religion": "christian", "denomination": "", "lat": -34.5457397, "lon": -58.5301819}, {"name": "Capilla San Ignacio de Loyola", "religion": "christian", "denomination": "", "lat": -34.5524205, "lon": -58.5250165}, {"name": "La Iglesia de Jesucristo de los Santos de los \u00daltimos D\u00edas", "religion": "christian", "denomination": "protestant", "lat": -34.5929613, "lon": -58.5472271}, {"name": "Parroquia San Roque", "religion": "christian", "denomination": "catholic", "lat": -34.5807238, "lon": -58.4676606}, {"name": "Capilla San Lorenzo", "religion": "christian", "denomination": "", "lat": -34.5589083, "lon": -58.527842}, {"name": "Congregaci\u00f3n el Buen Samaritano", "religion": "christian", "denomination": "", "lat": -34.5901925, "lon": -58.5323929}, {"name": "Pabell\u00f3n K", "religion": "christian", "denomination": "catholic", "lat": -34.6233555, "lon": -58.4690721}, {"name": "Iglesia Salvos Por Su Gracia", "religion": "christian", "denomination": "", "lat": -34.5414683, "lon": -58.5317494}, {"name": "Parroquia de Nuestra Se\u00f1ora de Luj\u00e1n", "religion": "christian", "denomination": "roman_catholic", "lat": -34.6808243, "lon": -58.3514584}, {"name": "Ministerio Seguidores de Cristo", "religion": "christian", "denomination": "", "lat": -34.5476721, "lon": -58.5381127}, {"name": "Parroquia Nuestra Se\u00f1ora del Sagrado Corazon", "religion": "christian", "denomination": "roman_catholic", "lat": -34.6556618, "lon": -58.5322707}, {"name": "Ermita Oratorio Virgen De Schoenstatt", "religion": "christian", "denomination": "", "lat": -34.6947301, "lon": -58.4188324}, {"name": "Capilla Reina de los Ap\u00f3stoles", "religion": "", "denomination": "", "lat": -34.5417798, "lon": -58.5382747}, {"name": "Parroquia Santa Mar\u00eda Goretti", "religion": "christian", "denomination": "", "lat": -34.6481122, "lon": -58.4906476}, {"name": "Parroquia Nuestra Se\u00f1ora del Monte Carmelo", "religion": "christian", "denomination": "", "lat": -34.6518484, "lon": -58.5445133}, {"name": "Iglesia Bautista San Mart\u00edn", "religion": "christian", "denomination": "baptist", "lat": -34.5713564, "lon": -58.5363472}, {"name": "Iglesia de Dios Cristiana Pentecostal", "religion": "christian", "denomination": "evangelical", "lat": -34.5564782, "lon": -58.5447435}, {"name": "Iglesia Visi\u00f3n de Futuro", "religion": "christian", "denomination": "", "lat": -34.623129, "lon": -58.4158389}, {"name": "Parroquia Nuestra Se\u00f1ora de las Gracias", "religion": "christian", "denomination": "catholic", "lat": -34.6579495, "lon": -58.4290932}, {"name": "Parroquia San Agust\u00edn", "religion": "christian", "denomination": "catholic", "lat": -34.5856778, "lon": -58.3998577}, {"name": "Comunidad Amijai", "religion": "jewish", "denomination": "", "lat": -34.5554463, "lon": -58.4516826}, {"name": "Congregaci\u00f3n Cristiana de la Argentina", "religion": "christian", "denomination": "", "lat": -34.5947532, "lon": -58.533315}, {"name": "Iglesia Evang\u00e9lica Asamblea de Dios", "religion": "christian", "denomination": "evangelical", "lat": -34.5738137, "lon": -58.5476019}, {"name": "Capilla Ntra. Sra. del Rosario de San Nicol\u00e1s", "religion": "christian", "denomination": "", "lat": -34.6987245, "lon": -58.5272051}, {"name": "", "religion": "christian", "denomination": "", "lat": -34.595732, "lon": -58.4021207}, {"name": "Iglesia Evang\u00e9lica del Nazareno \"Palabra Viva\" Villa Soldati", "religion": "christian", "denomination": "evangelical", "lat": -34.66498, "lon": -58.441821}, {"name": "Iglesia de Dios", "religion": "", "denomination": "", "lat": -34.5804048, "lon": -58.537272}, {"name": "Sal\u00f3n del Rein\u00f3 de los Testigos de Jehov\u00e1", "religion": "christian", "denomination": "jehovahs_witness", "lat": -34.581604, "lon": -58.5374262}, {"name": "Centro de meditaci\u00f3n kadampa Argentina", "religion": "buddhist", "denomination": "new_kadampa_tradition", "lat": -34.5905543, "lon": -58.4334257}, {"name": "Parroquia Tr\u00e1nsito de la Sant\u00edsima Virgen", "religion": "christian", "denomination": "catholic", "lat": -34.6072353, "lon": -58.4132265}, {"name": "Peniel", "religion": "christian", "denomination": "evangelical", "lat": -34.6346225, "lon": -58.5004412}, {"name": "Parroquia San Cosme y San Dami\u00e1n", "religion": "christian", "denomination": "roman_catholic", "lat": -34.6571964, "lon": -58.5184007}, {"name": "Nuestra Se\u00f1ora del Carmen", "religion": "christian", "denomination": "catholic", "lat": -34.5991005, "lon": -58.3920725}]