[{"name": "Villa 21 -24 / Zavaleta", "lat": -34.6547856, "lon": -58.3989516}, {"name": "Villa 31 bis", "lat": -34.5820212, "lon": -58.3853934}, {"name": "Pasillo Rodrigo Bueno", "lat": -34.6600401, "lon": -58.4548946}, {"name": "Barrio Hist\u00f3rico Rodrigo Bueno", "lat": -34.6185162, "lon": -58.353115}, {"name": "Barrio Ram\u00f3n Carrillo", "lat": -34.6565219, "lon": -58.4572621}, {"name": "Polideportivo Villa 20", "lat": -34.6773723, "lon": -58.46633}, {"name": "Casa de la Cultura - Villa 21 Barracas", "lat": -34.6518205, "lon": -58.3974886}, {"name": "Cancha del Fondo Ciudad Oculta", "lat": -34.6727044, "lon": -58.4911008}, {"name": "Centro Comunitario Rodrigo Bueno", "lat": -34.6186241, "lon": -58.3529393}, {"name": "Villa 21-24", "lat": -34.6544255, "lon": -58.3980588}, {"name": "Patio Gastron\u00f3mico Rodrigo Bueno", "lat": -34.6181347, "lon": -58.3552895}, {"name": "Villa 15 - Ciudad Oculta", "lat": -34.6699507, "lon": -58.4863774}, {"name": "Borde Costero Rodrigo Bueno", "lat": -34.6187159, "lon": -58.3531198}]